{
  "type": "FeatureCollection",
  "features": [
    {
      "type": "Feature",
      "properties": {
        "name": "Memorial Park Tennis Courts Restrooms",
        "type": "All/Binary Gender Restroom",
        "marker-color": "#87ceeb",
        "marker-size": "small",
        "marker-symbol": "circle"
      },
      "geometry": {
        "coordinates": [-122.04565331339839, 37.32638516885883],
        "type": "Point"
      },
      "id": "restroom-6e1214d0-1797-4ff9-ba59-530f43b01d2c"
    },
    {
      "type": "Feature",
      "properties": {
        "name": "Amphitheater Restrooms",
        "type": "All/Binary Gender Restroom",
        "marker-color": "#87ceeb",
        "marker-size": "small",
        "marker-symbol": "circle"
      },
      "geometry": {
        "coordinates": [-122.0445227622986, 37.32405176474138],
        "type": "Point"
      },
      "id": "restroom-7ddadc26-2e78-42f1-aaec-5aaaeab13e70"
    },
    {
      "type": "Feature",
      "properties": {
        "name": "A1 Building Men's Restroom",
        "type": "Men's Restroom",
        "marker-color": "#87ceeb",
        "marker-size": "small",
        "marker-symbol": "circle"
      },
      "geometry": {
        "coordinates": [-122.0462688803673, 37.32196465040257],
        "type": "Point"
      },
      "id": "restroom-3dbce48e-cd06-46e7-b6d0-9b07e7aa4c52"
    },
    {
      "type": "Feature",
      "properties": {
        "name": "A1 Building Women's Restroom",
        "type": "Women's Restroom",
        "marker-color": "#87ceeb",
        "marker-size": "small",
        "marker-symbol": "circle"
      },
      "geometry": {
        "coordinates": [-122.04603955149653, 37.32196465040257],
        "type": "Point"
      },
      "id": "restroom-35252642-0cb1-4b18-adab-e167ea6468b2"
    },
    {
      "type": "Feature",
      "properties": {
        "name": "A4 Building Women's Restroom",
        "type": "Women's Restroom",
        "marker-color": "#87ceeb",
        "marker-size": "small",
        "marker-symbol": "circle"
      },
      "geometry": {
        "coordinates": [-122.04596444964412, 37.32162336916632],
        "type": "Point"
      },
      "id": "restroom-fc96bc63-ec85-43a4-afeb-ea67a6ff31f0"
    },
    {
      "type": "Feature",
      "properties": {
        "name": "A4 Building Men's Restroom",
        "type": "Men's Restroom",
        "marker-color": "#87ceeb",
        "marker-size": "small",
        "marker-symbol": "circle"
      },
      "geometry": {
        "coordinates": [-122.04585447907449, 37.32162336916632],
        "type": "Point"
      },
      "id": "restroom-ee95da5c-d3ce-4710-b7f4-e4f665044d24"
    },
    {
      "type": "Feature",
      "properties": {
        "name": "Hinson Campus Center West Restrooms",
        "type": "All/Binary Gender Restroom",
        "marker-color": "#87ceeb",
        "marker-size": "small",
        "marker-symbol": "circle"
      },
      "geometry": {
        "coordinates": [-122.04581156373025, 37.32086187982098],
        "type": "Point"
      },
      "id": "restroom-16c12643-87ef-42cc-a91c-7d10f7ee55a6"
    },
    {
      "type": "Feature",
      "properties": {
        "name": "Hinson Campus Center East Restrooms",
        "type": "All/Binary Gender Restroom",
        "marker-color": "#87ceeb",
        "marker-size": "small",
        "marker-symbol": "circle"
      },
      "geometry": {
        "coordinates": [-122.04516381025316, 37.32069976904826],
        "type": "Point"
      },
      "id": "restroom-027f1502-0c52-47f0-9a42-9a45fa917d84"
    },
    {
      "type": "Feature",
      "properties": {
        "name": "Administration Building Restrooms",
        "type": "All/Binary Gender Restroom",
        "marker-color": "#87ceeb",
        "marker-size": "small",
        "marker-symbol": "circle"
      },
      "geometry": {
        "coordinates": [-122.04587593674661, 37.32012597942513],
        "type": "Point"
      },
      "id": "restroom-44deb02e-4c29-442f-ba54-57b29a70c62f"
    },
    {
      "type": "Feature",
      "properties": {
        "name": "De Anza Library Restrooms",
        "type": "All/Binary Gender Restroom",
        "marker-color": "#87ceeb",
        "marker-size": "small",
        "marker-symbol": "circle"
      },
      "geometry": {
        "coordinates": [-122.046394944191, 37.32053979096923],
        "type": "Point"
      },
      "id": "restroom-ff475d32-d6b7-477b-99ee-906ffb902ac5"
    },
    {
      "type": "Feature",
      "properties": {
        "name": "Learning Center West Restrooms",
        "type": "All/Binary Gender Restroom",
        "marker-color": "#87ceeb",
        "marker-size": "small",
        "marker-symbol": "circle"
      },
      "geometry": {
        "coordinates": [-122.04708024859431, 37.32026569440226],
        "type": "Point"
      },
      "id": "restroom-85e4350b-8306-4409-861e-4a9a090ba8fd"
    },
    {
      "type": "Feature",
      "properties": {
        "name": "East Cottage All Gender Restroom",
        "type": "All/Binary Gender Restroom",
        "marker-color": "#87ceeb",
        "marker-size": "small",
        "marker-symbol": "circle"
      },
      "geometry": {
        "coordinates": [-122.04744905233386, 37.32110931137885],
        "type": "Point"
      },
      "id": "restroom-7114c724-4a2a-457c-8d3f-343329039535"
    },
    {
      "type": "Feature",
      "properties": {
        "name": "Media & Learning Center Restrooms",
        "type": "All/Binary Gender Restroom",
        "marker-color": "#87ceeb",
        "marker-size": "small",
        "marker-symbol": "circle"
      },
      "geometry": {
        "coordinates": [-122.04770252108577, 37.320951467203265],
        "type": "Point"
      },
      "id": "restroom-432a160b-fe5f-45fd-8e85-45da056f5a04"
    },
    {
      "type": "Feature",
      "properties": {
        "name": "S2 Building Men's Restroom",
        "type": "Men's Restroom",
        "marker-color": "#87ceeb",
        "marker-size": "small",
        "marker-symbol": "circle"
      },
      "geometry": {
        "coordinates": [-122.04591616988182, 37.31947006212932],
        "type": "Point"
      },
      "id": "restroom-551d433f-d786-4ce5-852a-ac494978ff54"
    },
    {
      "type": "Feature",
      "properties": {
        "name": "S2 Building Women's Restroom",
        "type": "Women's Restroom",
        "marker-color": "#87ceeb",
        "marker-size": "small",
        "marker-symbol": "circle"
      },
      "geometry": {
        "coordinates": [-122.04591616988182, 37.31923435711759],
        "type": "Point"
      },
      "id": "restroom-7bfac569-b5ff-4be3-9c1a-1b9ec92def56"
    },
    {
      "type": "Feature",
      "properties": {
        "name": "S2 Building All-Gender Restroom",
        "type": "All/Binary Gender Restroom",
        "marker-color": "#87ceeb",
        "marker-size": "small",
        "marker-symbol": "circle"
      },
      "geometry": {
        "coordinates": [-122.0458920300007, 37.31935167644657],
        "type": "Point"
      },
      "id": "restroom-4c39869f-4236-44d9-8bc5-4fd23c672670"
    },
    {
      "type": "Feature",
      "properties": {
        "name": "Registration & Student Services Restrooms",
        "type": "All/Binary Gender Restroom",
        "marker-color": "#87ceeb",
        "marker-size": "small",
        "marker-symbol": "circle"
      },
      "geometry": {
        "coordinates": [-122.04444497823717, 37.32172575369993],
        "type": "Point"
      },
      "id": "restroom-46169d61-2bae-46d5-8783-77929528da57"
    },
    {
      "type": "Feature",
      "properties": {
        "name": "Visual & Performing Arts Center Men's Restroom",
        "type": "Men's Restroom",
        "marker-color": "#87ceeb",
        "marker-size": "small",
        "marker-symbol": "circle"
      },
      "geometry": {
        "coordinates": [-122.0438213646412, 37.3217897439626],
        "type": "Point"
      },
      "id": "restroom-d5c2eebd-0759-4045-b02d-b4bd21549e02"
    },
    {
      "type": "Feature",
      "properties": {
        "name": "Visual & Performing Arts Center Women's Restroom",
        "type": "Women's Restroom",
        "marker-color": "#87ceeb",
        "marker-size": "small",
        "marker-symbol": "circle"
      },
      "geometry": {
        "coordinates": [-122.04357996582986, 37.3217897439626],
        "type": "Point"
      },
      "id": "restroom-3d011314-f526-4614-994e-17cc34f5220a"
    },
    {
      "type": "Feature",
      "properties": {
        "name": "Multicultural Center All-Gender Restroom",
        "type": "All/Binary Gender Restroom",
        "marker-color": "#87ceeb",
        "marker-size": "small",
        "marker-symbol": "circle"
      },
      "geometry": {
        "coordinates": [-122.0437127351761, 37.32119036636722],
        "type": "Point"
      },
      "id": "restroom-b761378e-9754-49b4-a9f1-961014412ccc"
    },
    {
      "type": "Feature",
      "properties": {
        "name": "Advanced Technology Center Restrooms",
        "type": "All/Binary Gender Restroom",
        "marker-color": "#87ceeb",
        "marker-size": "small",
        "marker-symbol": "circle"
      },
      "geometry": {
        "coordinates": [-122.04486072063447, 37.32113064164743],
        "type": "Point"
      },
      "id": "restroom-8d288b9f-1143-4589-b9ae-3b307365f4e4"
    },
    {
      "type": "Feature",
      "properties": {
        "name": "L5 Building Women's Restroom",
        "type": "Women's Restroom",
        "marker-color": "#87ceeb",
        "marker-size": "small",
        "marker-symbol": "circle"
      },
      "geometry": {
        "coordinates": [-122.04366043210031, 37.32040540911968],
        "type": "Point"
      },
      "id": "restroom-6ed21449-5168-4544-8de7-71f05d767dac"
    },
    {
      "type": "Feature",
      "properties": {
        "name": "L5 Building Men's Restroom",
        "type": "Men's Restroom",
        "marker-color": "#87ceeb",
        "marker-size": "small",
        "marker-symbol": "circle"
      },
      "geometry": {
        "coordinates": [-122.04366043210031, 37.32017397314883],
        "type": "Point"
      },
      "id": "restroom-e891b648-51bb-45b9-ba83-5336104db8e9"
    },
    {
      "type": "Feature",
      "properties": {
        "name": "L5 Building All-Gender Restroom",
        "type": "All/Binary Gender Restroom",
        "marker-color": "#87ceeb",
        "marker-size": "small",
        "marker-symbol": "circle"
      },
      "geometry": {
        "coordinates": [-122.04363226890565, 37.320287024910265],
        "type": "Point"
      },
      "id": "restroom-fef467d3-f009-4c46-9b4d-d159aa091024"
    },
    {
      "type": "Feature",
      "properties": {
        "name": "Seminar Building Men's Restroom",
        "type": "Men's Restroom",
        "marker-color": "#87ceeb",
        "marker-size": "small",
        "marker-symbol": "circle"
      },
      "geometry": {
        "coordinates": [-122.04753488302232, 37.31982628459043],
        "type": "Point"
      },
      "id": "restroom-7668c5c1-6046-4e82-bbd0-242b9827ef41"
    },
    {
      "type": "Feature",
      "properties": {
        "name": "Seminar Building Women's Restroom",
        "type": "Women's Restroom",
        "marker-color": "#87ceeb",
        "marker-size": "small",
        "marker-symbol": "circle"
      },
      "geometry": {
        "coordinates": [-122.04769045114519, 37.31982628459043],
        "type": "Point"
      },
      "id": "restroom-dd39fddd-3d04-4807-8383-4af2b25aebfb"
    },
    {
      "type": "Feature",
      "properties": {
        "name": "S6 Building Men's Restroom",
        "type": "Men's Restroom",
        "marker-color": "#87ceeb",
        "marker-size": "small",
        "marker-symbol": "circle"
      },
      "geometry": {
        "coordinates": [-122.04734042286876, 37.31947006212932],
        "type": "Point"
      },
      "id": "restroom-a8baa11b-d5ec-4bca-98c1-cf991e116df7"
    },
    {
      "type": "Feature",
      "properties": {
        "name": "S6 Building Women's Restroom",
        "type": "Women's Restroom",
        "marker-color": "#87ceeb",
        "marker-size": "small",
        "marker-symbol": "circle"
      },
      "geometry": {
        "coordinates": [-122.04734042286876, 37.319238623278196],
        "type": "Point"
      },
      "id": "restroom-12c0355d-da81-4700-b2c6-dec8d5e7b193"
    },
    {
      "type": "Feature",
      "properties": {
        "name": "S6 Building All-Gender Restroom",
        "type": "All/Binary Gender Restroom",
        "marker-color": "#87ceeb",
        "marker-size": "small",
        "marker-symbol": "circle"
      },
      "geometry": {
        "coordinates": [-122.0473685860634, 37.31935167644657],
        "type": "Point"
      },
      "id": "restroom-ef7493c1-223f-4be7-9ed6-0fa2bfd6b392"
    },
    {
      "type": "Feature",
      "properties": {
        "name": "Physical Education 4 Building Men's Restroom",
        "type": "Men's Restroom",
        "marker-color": "#87ceeb",
        "marker-size": "small",
        "marker-symbol": "circle"
      },
      "geometry": {
        "coordinates": [-122.04542934894563, 37.31905197852432],
        "type": "Point"
      },
      "id": "restroom-a95ae82f-1baf-487a-bbfa-d05b8c56126f"
    },
    {
      "type": "Feature",
      "properties": {
        "name": "Physical Education 5 Building Women's Restroom",
        "type": "Women's Restroom",
        "marker-color": "#87ceeb",
        "marker-size": "small",
        "marker-symbol": "circle"
      },
      "geometry": {
        "coordinates": [-122.0445415377617, 37.31905197852432],
        "type": "Point"
      },
      "id": "restroom-88b2c359-a63d-4f04-8954-7e9495c93662"
    },
    {
      "type": "Feature",
      "properties": {
        "name": "Physical Education 5 Building All-Gender Restroom",
        "type": "All/Binary Gender Restroom",
        "marker-color": "#87ceeb",
        "marker-size": "small",
        "marker-symbol": "circle"
      },
      "geometry": {
        "coordinates": [-122.04446509480478, 37.31885146821516],
        "type": "Point"
      },
      "id": "restroom-22fbc923-fcea-468e-9ab2-6e6ac153ad65"
    },
    {
      "type": "Feature",
      "properties": {
        "name": "Physical Education 6 Building Women's Locker Room",
        "type": "Women's Restroom",
        "marker-color": "#87ceeb",
        "marker-size": "small",
        "marker-symbol": "circle"
      },
      "geometry": {
        "coordinates": [-122.04499483108522, 37.318540036248805],
        "type": "Point"
      },
      "id": "restroom-b1f60a9c-60ac-4c2c-9df4-cc51778df34c"
    },
    {
      "type": "Feature",
      "properties": {
        "name": "Physical Education 6 Building Men's Locker Room",
        "type": "Men's Restroom",
        "marker-color": "#87ceeb",
        "marker-size": "small",
        "marker-symbol": "circle"
      },
      "geometry": {
        "coordinates": [-122.04499483108522, 37.31840138461578],
        "type": "Point"
      },
      "id": "restroom-86f17fc7-2e78-4f49-a305-c6a2ed914c15"
    },
    {
      "type": "Feature",
      "properties": {
        "name": "SC1 Building Men's Restroom",
        "type": "Men's Restroom",
        "marker-color": "#87ceeb",
        "marker-size": "small",
        "marker-symbol": "circle"
      },
      "geometry": {
        "coordinates": [-122.04635873436929, 37.31817527525017],
        "type": "Point"
      },
      "id": "restroom-85d71567-a12f-44e1-8552-0f7a5341e458"
    },
    {
      "type": "Feature",
      "properties": {
        "name": "SC1 Building Women's Restroom",
        "type": "Women's Restroom",
        "marker-color": "#87ceeb",
        "marker-size": "small",
        "marker-symbol": "circle"
      },
      "geometry": {
        "coordinates": [-122.04635873436929, 37.31800569277956],
        "type": "Point"
      },
      "id": "restroom-655da17b-8df3-4635-8b8c-f5d0adc63eae"
    },
    {
      "type": "Feature",
      "properties": {
        "name": "G Building All-Gender Restroom A",
        "type": "All/Binary Gender Restroom",
        "marker-color": "#87ceeb",
        "marker-size": "small",
        "marker-symbol": "circle"
      },
      "geometry": {
        "coordinates": [-122.04569220542909, 37.31710657932656],
        "type": "Point"
      },
      "id": "restroom-5b8836c4-4b3d-4c14-9c37-d6441eb9a077"
    },
    {
      "type": "Feature",
      "properties": {
        "name": "G Building All-Gender Restroom B",
        "type": "All/Binary Gender Restroom",
        "marker-color": "#87ceeb",
        "marker-size": "small",
        "marker-symbol": "circle"
      },
      "geometry": {
        "coordinates": [-122.04569220542909, 37.31705751707307],
        "type": "Point"
      },
      "id": "restroom-c542b19b-f4b9-4ad8-a2e1-adbd06974c9a"
    },
    {
      "type": "Feature",
      "properties": {
        "name": "Kirsch Center Restrooms",
        "type": "All/Binary Gender Restroom",
        "marker-color": "#87ceeb",
        "marker-size": "small",
        "marker-symbol": "circle"
      },
      "geometry": {
        "coordinates": [-122.0434954762459, 37.31608053161769],
        "type": "Point"
      },
      "id": "restroom-bf569a91-557c-4cfb-8d7e-b76b66397ff8"
    },
    {
      "type": "Feature",
      "properties": {
        "name": "Senior Center Restrooms",
        "type": "All/Binary Gender Restroom",
        "marker-color": "#87ceeb",
        "marker-size": "small",
        "marker-symbol": "circle"
      },
      "geometry": {
        "coordinates": [-122.04569756984712, 37.323279635175375],
        "type": "Point"
      },
      "id": "restroom-7a54dc8f-d78e-4fb6-805a-1701dac7c22f"
    },
    {
      "type": "Feature",
      "properties": {
        "name": "Quinlan Community Center North Restrooms",
        "type": "All/Binary Gender Restroom",
        "marker-color": "#87ceeb",
        "marker-size": "small",
        "marker-symbol": "circle"
      },
      "geometry": {
        "coordinates": [-122.04243600368501, 37.32604923991565],
        "type": "Point"
      },
      "id": "restroom-ddd75347-34ab-4a15-9536-bb170e677ba1"
    },
    {
      "type": "Feature",
      "properties": {
        "name": "Quinlan Community Center South Restrooms",
        "type": "All/Binary Gender Restroom",
        "marker-color": "#87ceeb",
        "marker-size": "small",
        "marker-symbol": "circle"
      },
      "geometry": {
        "coordinates": [-122.04243600368501, 37.32560133232189],
        "type": "Point"
      },
      "id": "restroom-a10c06af-9aa7-48bd-a692-eb5262fae0fa"
    }
  ]
}
